X,Y,dot_un_id_,dot_un_i_1,dot_packin,total_quan,units_for_,receivin_2,receivin_3,receivin_4,receivin_5,receivin_6,Vol-I,Vol-II,Vol-III,Vol-U,Mass-I,Mass-II,Mass-III,Mass-U,Latitude,Longitude,"Accuracy Score",Street,City,State,County,Zip
-82.071438,41.379149,UN3077,"Environmentally hazardous substances, solid, n.o.s.",III,24.000000000000000,"P - Pounds","CLEAN HARBORS INC","2027 BATTLEGROUND ROAD","LA PORTE",TX,77571,0.00,,,0.00,0.00,13619.00,6562.00,0.00,29.730103048495,-95.089768787625,0.8,"2027 Battleground Road Ln","La Porte",TX,"Harris County",77571
-82.048136783199993,41.326674751600002,UN3249,"Medicine, solid, toxic, n.o.s.",,85.000000000000000,"K - Kilograms","ROSS INCINERATION SERVICES INC","36790 GILES ROAD",GRAFTON,OH,44044,0.00,0.00,0.00,0.00,0.00,461305.05,0.00,116397.32,41.326674751579,-82.048136783158,1,"36790 Giles Rd",Grafton,OH,"Lorain County",44044
-81.668384,41.480750188800002,UN1805,"Phosphoric acid solution",III,352.000000000000000,"P - Pounds","CLEAN HARBORS INC","2900 ROCKEFELLER AVENUE",CLEVELAND,OH,44115,0.00,0.00,0.00,0.00,0.00,40389.00,1997.00,0.00,41.480750188811,-81.668384,1,"2900 Rockefeller Ave",Cleveland,OH,"Cuyahoga County",44115
-81.369830901399993,40.7753751268,UN3264,"Corrosive liquid, acidic, inorganic, n.o.s.",II,1796.000000000000000,"G - Gallons","ENVIRITE OF OHIO","2050 CENTRAL AVE",CANTON,OH,44707,0.00,761811.06,5542.00,0.00,0.00,0.00,755711.00,0.00,40.775375126761,-81.369830901408,1,"2050 Central Ave",Canton,OH,"Stark County",44707
-80.548620510199996,40.6313754082,UN1992,"Flammable liquids, toxic, n.o.s.",II,18360.000000000000000,"L - Liters","HERITAGE-WTI INC","1250 ST GEORGE ST","EAST LIVERPOOL",OH,43920,0.00,99087.48,0.00,0.00,0.00,0.00,413313.83,0.00,40.677372,-80.600629,0.22," ","East Liverpool",OH,,43920
-84.513717,39.16646,,,,55.000000000000000,"G - Gallons","SPRING GROVE RESOURCE RECOVERY INC","4879 SPRING GROVE AVENUE",CINCINNATI,OH,45232,0.00,28213.51,2112.52,631.99,0.00,242768.35,11287.65,0.00,39.16646,-84.513717,1,"4879 Spring Grove Ave",Cincinnati,OH,"Hamilton County",45232
-84.532406,41.121205,UN1992,"Flammable liquids, toxic, n.o.s.",II,45388.000000000000000,"P - Pounds","SYSTECH ENVIRONMENTAL","11397 CO RD 176",PAULDING,OH,45879,0.00,86910.00,0.00,5000.00,0.00,126070.00,0.00,0.00,41.121205,-84.532406,0.33," ",Paulding,OH,,45879
